,City,Cloudiness,Country,Date,Humidity,Lat,Lng,Max Temp,Wind Speed
0,Hilo,90,US,1545533580,84,19.71,-155.08,23.9,4.6
1,Busselton,0,AU,1545534652,72,-33.64,115.35,25.19,4.43
2,Albany,90,US,1545533820,63,42.65,-73.75,2.2,5.1
3,Cape Town,75,ZA,1545531900,94,-33.93,18.42,20.0,4.6
4,Kodiak,1,US,1545533700,69,39.95,-94.76,1.2,3.1
5,Bredasdorp,0,ZA,1545530400,88,-34.53,20.04,19.0,0.5
6,Bluff,20,AU,1545534662,82,-23.58,149.07,27.59,6.78
7,Ilulissat,92,GL,1545533400,92,69.22,-51.1,-5.0,2.6
8,Ushuaia,40,AR,1545534000,70,-54.81,-68.31,7.0,5.1
9,Berezhany,75,UA,1545534000,92,49.44,24.94,5.0,6.0
10,Neiafu,75,TO,1545534000,79,-18.65,-173.98,29.0,5.1
11,Shar,0,NG,1545534819,43,7.3,8.73,20.29,4.13
12,Bulgan,20,MN,1545534819,25,48.81,103.53,-13.14,3.08
13,Hermanus,0,ZA,1545534674,100,-34.42,19.24,12.44,1.2
14,Meulaboh,0,ID,1545534687,100,4.14,96.13,27.69,2.58
15,Camapua,24,BR,1545534819,91,-19.53,-54.04,22.46,1.23
16,Mataura,0,NZ,1545534669,63,-46.19,168.86,19.04,1.9
17,Saint George,40,GR,1545529800,100,39.45,22.34,8.0,1.58
18,Paamiut,92,GL,1545534820,92,61.99,-49.67,1.19,17.45
19,Puerto Ayora,92,EC,1545534659,100,-0.74,-90.35,23.91,4.3
20,Saskylakh,0,RU,1545534672,0,71.97,114.09,-40.94,3.45
21,Pisco,0,PE,1545530400,83,-13.71,-76.2,21.0,7.7
22,Lompoc,75,US,1545532500,87,34.64,-120.46,15.0,2.6
23,Yulara,0,AU,1545530400,8,-25.24,130.99,32.0,7.7
24,Plainview,1,US,1545533700,42,34.18,-101.71,10.0,6.7
25,Lamego,80,PT,1545534820,98,41.1,-7.81,5.46,1.23
26,Trento,0,IT,1545534820,62,46.07,11.13,-6.89,0.68
27,Kaitangata,0,NZ,1545534694,71,-46.28,169.85,17.31,2.93
28,College,40,US,1545533760,73,64.86,-147.8,-24.8,1.2
29,Chuy,92,UY,1545534578,96,-33.69,-53.46,19.11,3.18
30,Winnemucca,75,US,1545530160,63,40.97,-117.74,1.7,3.1
31,Yellowknife,90,CA,1545530400,84,62.45,-114.38,-16.0,2.1
32,Huarmey,8,PE,1545534821,91,-10.07,-78.15,17.84,1.73
33,Muroto,20,JP,1545534000,63,33.37,134.14,18.0,2.1
34,Hobart,75,AU,1545532200,40,-42.88,147.33,22.0,6.2
35,Jamestown,0,AU,1545534540,33,-33.21,138.6,26.34,2.05
36,Lodja,68,CD,1545534821,97,-3.52,23.6,20.84,1.03
37,Caxito,12,BR,1545534821,92,-22.65,-42.51,24.44,1.1
38,Port Augusta,0,AU,1545530400,36,-32.49,137.76,27.0,5.1
39,Maningrida,8,AU,1545534821,78,-12.05,134.23,32.19,3.95
40,Carnarvon,0,ZA,1545534690,44,-30.97,22.13,17.21,4.63
41,Provideniya,44,RU,1545534665,100,64.42,-173.23,-15.59,3.18
42,Baruun-Urt,0,MN,1545534708,45,46.68,113.28,-19.54,6.15
43,Nouadhibou,36,MR,1545534822,55,20.93,-17.03,20.01,6.88
44,Gornoye Loo,90,RU,1545534000,76,43.72,39.61,10.0,3.0
45,Polunochnoye,36,RU,1545534822,67,60.87,60.43,-20.19,2.0
46,Castro,90,CL,1545530400,76,-42.48,-73.76,12.0,2.1
47,Rikitea,80,PF,1545534651,100,-23.12,-134.97,25.34,7.78
48,Airai,92,TL,1545534667,92,-8.93,125.41,23.31,1.0
49,Sistranda,40,NO,1545533400,79,63.73,8.83,-6.0,3.1
50,Fortuna,0,ES,1545532200,87,38.18,-1.13,7.0,1.5
51,Micheweni,48,TZ,1545534713,100,-4.97,39.83,27.71,4.53
52,Ahipara,92,NZ,1545534699,89,-35.17,173.16,21.46,3.8
53,Prince Rupert,90,CA,1545533220,60,54.32,-130.32,6.0,4.6
54,Bredy,92,RU,1545534822,83,52.43,60.33,-14.82,3.23
55,Sitka,76,US,1545534675,60,37.17,-99.65,4.56,5.55
56,Saint-Pierre,90,FR,1545532200,100,48.95,4.24,9.0,4.1
57,Port Elizabeth,90,US,1545533760,59,39.31,-74.98,6.7,6.2
58,Codrington,40,AU,1545532320,50,-28.95,153.24,27.0,10.8
59,Aksu,0,KZ,1545532200,71,52.04,76.93,-15.0,2.0
60,Tocopilla,44,CL,1545534823,93,-22.09,-70.2,15.81,2.25
61,Mareeba,44,AU,1545532200,66,-16.99,145.42,32.0,5.7
62,Gazli,0,UZ,1545534706,73,40.13,63.45,-9.82,1.35
63,Fairbanks,40,US,1545533760,73,64.84,-147.72,-24.8,1.2
64,Qaanaaq,0,GL,1545534661,74,77.48,-69.36,-27.54,1.88
65,Zhigansk,0,RU,1545534740,0,66.77,123.37,-35.99,3.73
66,Emerald,20,AU,1545530400,52,-23.53,148.16,31.0,8.7
67,Mar del Plata,64,AR,1545534719,43,-46.43,-67.52,20.31,3.83
68,Kuito,88,AO,1545534824,96,-12.38,16.94,14.81,2.55
69,Kapaa,20,US,1545533760,71,22.08,-159.32,26.1,4.6
70,Saint-Philippe,90,CA,1545532500,75,45.36,-73.48,-3.0,4.1
71,San Patricio,76,PY,1545534701,88,-26.98,-56.83,23.56,2.03
72,Karratha,0,AU,1545534684,9,-20.74,116.85,41.09,3.08
73,Khatanga,76,RU,1545534670,75,71.98,102.47,-27.22,8.95
74,Esperance,20,TT,1545530400,88,10.24,-61.45,23.0,2.38
75,Barra do Garcas,12,BR,1545534701,82,-15.89,-52.26,24.96,0.9
76,Cidreira,8,BR,1545534692,97,-30.17,-50.22,20.19,2.28
77,Victoria,75,BN,1545532200,83,5.28,115.24,29.0,1.5
78,Karla,90,EE,1545533400,92,59.37,24.93,-6.0,2.1
79,Kalat,48,PK,1545534824,85,29.03,66.58,-6.97,0.98
80,Rocha,12,UY,1545534675,96,-34.48,-54.34,14.86,1.83
81,Aksha,0,RU,1545534825,42,50.28,113.29,-18.64,2.38
82,Port-Gentil,76,GA,1545534825,100,-0.72,8.78,25.94,2.93
83,Vostok,56,RU,1545534652,61,46.45,135.83,-11.54,2.83
84,Salalah,0,OM,1545533400,43,17.01,54.1,22.0,4.6
85,Tasiilaq,68,GL,1545533400,85,65.61,-37.64,-4.0,0.5
86,San Carlos de Bariloche,0,AR,1545530400,47,-41.13,-71.31,15.0,8.2
87,Vardo,90,US,1545534300,67,39.62,-77.74,5.0,3.13
88,Santo Andre,44,BR,1545534825,93,-0.91,-46.86,23.81,1.6
89,Bud,80,NO,1545533400,100,62.91,6.91,3.0,3.1
90,Punta Arenas,0,CL,1545530400,61,-53.16,-70.91,8.0,11.8
91,Chokurdakh,44,RU,1545534666,0,70.62,147.9,-35.99,1.58
92,Iqaluit,90,CA,1545531480,76,63.75,-68.52,-23.0,13.4
93,Tazovskiy,24,RU,1545534713,0,67.47,78.7,-35.44,6.98
94,Qaqortoq,92,GL,1545534660,89,60.72,-46.03,-0.47,8.0
95,Barrow,36,AR,1545534685,49,-38.31,-60.23,20.44,4.88
96,Upernavik,36,GL,1545534672,100,72.79,-56.15,-18.74,4.7
97,Lebu,20,ET,1545530400,87,8.96,38.73,10.0,1.0
98,Kitimat,90,CA,1545531780,86,54.02,-128.69,-3.0,11.8
99,Praia da Vitoria,75,PT,1545530400,100,38.73,-27.07,14.0,7.85
100,Atuona,64,PF,1545534653,100,-9.8,-139.03,26.86,7.28
101,Hamilton,75,BM,1545530100,77,32.3,-64.78,20.0,5.1
102,Varhaug,0,NO,1545533400,92,58.61,5.65,-1.0,1.0
103,Dunmore East,92,IE,1545534826,98,52.15,-6.99,10.09,6.18
104,Narsaq,92,GL,1545534713,76,60.91,-46.05,-7.07,1.35
105,Aiken,1,US,1545533760,100,33.56,-81.72,3.9,1.43
106,Norman Wells,40,CA,1545530400,75,65.28,-126.83,-27.0,1.5
107,Bambous Virieux,75,MU,1545530400,78,-20.34,57.76,26.0,7.2
108,Batagay-Alyta,36,RU,1545534827,0,67.8,130.41,-43.99,1.55
109,Caravelas,0,BR,1545534738,100,-17.73,-39.27,26.84,9.3
110,Vila Velha,75,BR,1545534000,83,-3.71,-38.6,27.0,2.6
111,Doba,0,TD,1545534827,51,8.66,16.85,14.66,3.48
112,Ternate,90,PH,1545534000,100,14.29,120.72,25.0,2.1
113,Tres Arroyos,36,AR,1545534827,49,-38.38,-60.28,20.44,4.88
114,Rozsypne,92,UA,1545534827,97,48.13,38.57,1.76,3.68
115,Avarua,75,CK,1545530400,78,-21.21,-159.78,28.0,6.2
116,Rawson,36,AR,1545534828,25,-43.3,-65.11,24.61,5.95
117,Vaini,0,IN,1545530400,88,15.34,74.49,17.0,2.58
118,Port Alfred,20,ZA,1545534671,93,-33.59,26.89,21.94,3.23
119,Guerrero Negro,0,MX,1545534668,100,27.97,-114.04,13.81,2.9
120,Thompson,90,CA,1545530400,64,55.74,-97.86,-18.0,3.6
121,Hasaki,75,JP,1545534000,87,35.73,140.83,12.0,3.1
122,Torbay,90,CA,1545530400,88,47.66,-52.73,2.0,9.8
123,Tuktoyaktuk,90,CA,1545530400,84,69.44,-133.03,-18.0,1.0
124,Dikson,88,RU,1545534675,98,73.51,80.55,-11.69,15.3
125,Mahebourg,75,MU,1545534000,78,-20.41,57.7,26.0,6.7
126,El Paso,20,US,1545533700,17,31.76,-106.49,17.1,2.1
127,Yerofey Pavlovich,0,RU,1545534828,66,53.97,121.97,-23.54,1.93
128,Pangnirtung,36,CA,1545534742,61,66.15,-65.72,-19.49,2.25
129,Vanderhoof,80,CA,1545534737,74,54.02,-124.02,-7.92,1.7
130,Vagur,76,FO,1545534736,100,61.47,-6.81,7.46,5.3
131,Marrakesh,0,MA,1545532200,58,31.63,-7.99,12.0,1.33
132,Raudeberg,92,NO,1545533400,93,61.99,5.14,2.0,2.6
133,Ola,12,RU,1545534829,100,59.58,151.3,-13.49,5.38
134,Nogliki,0,RU,1545534829,98,51.8,143.14,-6.82,4.8
135,Sao Filipe,56,CV,1545534536,96,14.9,-24.5,23.69,4.15
136,New Norfolk,75,AU,1545532200,40,-42.78,147.06,22.0,6.2
137,Marienburg,75,DE,1545533400,87,52.12,9.98,7.0,5.1
138,Saint-Francois,90,FR,1545532200,100,46.42,3.91,9.0,2.6
139,Goure,0,NE,1545534830,33,13.98,10.27,13.86,5.3
140,Carmen,36,PH,1545534803,100,7.2,124.8,26.79,1.03
141,Saldanha,8,PT,1545534679,83,41.42,-6.55,0.56,1.23
142,Brooks,0,CA,1545534830,71,50.57,-111.89,-10.42,0.8
143,Hithadhoo,0,MV,1545534659,100,-0.6,73.08,28.06,3.63
144,Guisijan,92,PH,1545534831,100,11.09,122.05,23.56,3.03
145,Nome,20,US,1545533700,86,30.04,-94.42,17.2,4.1
146,Zeya,64,RU,1545534831,66,53.74,127.27,-20.89,1.15
147,Wamba,0,CD,1545534832,89,2.14,27.99,18.26,0.93
148,Longyearbyen,75,NO,1545533400,72,78.22,15.63,-8.0,9.8
149,Butaritari,68,KI,1545534663,100,3.07,172.79,28.04,2.85
150,Bonthe,0,SL,1545534832,88,7.53,-12.5,26.04,1.45
151,Ribeira Grande,100,PT,1545534679,100,38.52,-28.7,14.01,4.05
152,Sao Joao da Barra,0,BR,1545534689,95,-21.64,-41.05,26.66,8.05
153,Valparaiso,40,US,1545533700,88,41.47,-87.06,2.0,2.6
154,Bathsheba,40,BB,1545530400,74,13.22,-59.52,26.0,7.7
155,Constitucion,75,MX,1545532980,18,23.99,-104.67,11.0,3.6
156,Georgetown,40,GY,1545530400,83,6.8,-58.16,26.0,4.1
157,Zyryanka,68,RU,1545534693,42,65.73,150.89,-32.74,1.03
158,Tucuman,0,PE,1545534833,79,-17.17,-70.89,10.84,0.75
159,Ostrovnoy,12,RU,1545534737,85,68.05,39.51,-13.94,6.4
160,Nouakchott,64,MR,1545532200,17,18.08,-15.98,19.0,4.1
161,Monywa,0,MM,1545534833,91,22.12,95.13,20.96,2.73
162,Shagonar,20,RU,1545534833,28,51.54,92.92,-29.64,0.88
163,Husavik,92,CA,1545534725,92,50.56,-96.99,-7.64,2.4
164,East London,80,ZA,1545534662,100,-33.02,27.91,23.31,8.1
165,Flinders,90,AU,1545530400,52,-34.58,150.85,21.0,3.6
166,Vallenar,0,CL,1545534834,82,-28.58,-70.76,14.36,0.98
167,Calderitas,75,MX,1545532980,68,18.55,-88.26,22.0,3.6
168,Nerchinskiy Zavod,0,RU,1545534834,49,51.31,119.61,-17.79,3.5
169,Belmonte,32,PT,1545534834,83,40.36,-7.35,0.56,0.83
170,Obama,36,JP,1545534834,87,35.49,135.74,12.31,1.55
171,Sinnamary,92,GF,1545534706,100,5.38,-52.96,25.56,4.3
172,Nagaur,0,IN,1545534835,73,27.2,73.74,10.06,4.03
173,Mehamn,80,NO,1545534721,100,71.03,27.85,-10.97,3.13
174,Beringovskiy,0,RU,1545534704,100,63.05,179.32,-23.72,6.85
175,Caucel,5,MX,1545532920,64,21.02,-89.71,20.0,3.1
176,Awang,24,ID,1545534835,80,-2.51,115.36,28.06,1.5
177,Donskoye,20,RU,1545534000,80,45.45,41.98,4.0,5.0
178,Dalvik,76,SE,1545533400,92,57.79,14.13,-4.0,1.38
179,Kuching,75,MY,1545532200,70,1.56,110.34,30.0,1.0
180,Srednekolymsk,44,RU,1545534656,0,67.46,153.71,-35.69,1.25
181,Arlit,0,NE,1545534724,70,18.74,7.39,9.41,2.13
182,Bure,0,NG,1545534836,45,10.52,10.33,12.46,3.8
183,Itanhaem,90,BR,1545534120,88,-24.18,-46.79,22.0,3.6
184,Vanavara,0,RU,1545534736,0,60.35,102.28,-36.29,2.83
185,Ketchikan,90,US,1545533580,64,55.34,-131.65,4.4,7.2
186,Severo-Kurilsk,36,RU,1545534660,100,50.68,156.12,-0.04,3.28
187,Alice Springs,0,AU,1545532200,9,-23.7,133.88,31.0,6.2
188,Kavieng,88,PG,1545534704,100,-2.57,150.8,25.96,1.83
189,Poum,76,MK,1545534719,93,41.28,20.71,-1.54,0.88
190,Bollnas,80,SE,1545534836,79,61.35,16.39,-8.47,2.18
191,Kieta,88,PG,1545534704,100,-6.22,155.63,26.71,4.4
192,Zeulenroda,88,DE,1545533400,87,50.65,11.98,6.0,5.1
193,Kincardine,0,GB,1545533400,93,56.07,-3.72,5.0,2.6
194,Itoman,75,JP,1545534000,69,26.12,127.67,25.0,6.2
195,Aklavik,90,CA,1545530400,76,68.22,-135.01,-20.0,0.33
196,Bubaque,0,GW,1545534837,100,11.28,-15.83,26.29,4.3
197,Wanning,75,AT,1545533400,87,48.64,13.53,7.0,5.7
198,Yendi,0,GH,1545534838,47,9.45,0.0,17.71,3.13
199,Arraial do Cabo,0,BR,1545534655,92,-22.97,-42.02,25.56,2.15
200,Necochea,20,AR,1545534838,80,-38.55,-58.74,18.19,4.7
201,Likasi,92,CD,1545534838,100,-10.99,26.74,17.36,2.35
202,Omboue,64,GA,1545534838,100,-1.57,9.26,25.26,2.0
203,Pandan,92,PH,1545534838,100,11.72,122.09,25.56,8.9
204,Boddam,20,GB,1545533400,86,57.47,-1.78,3.0,3.1
205,Mogzon,0,RU,1545534839,47,51.74,111.97,-17.44,3.93
206,Tiksi,0,RU,1545534660,0,71.64,128.87,-39.92,1.68
207,Kilindoni,80,TZ,1545534839,100,-7.91,39.67,28.21,5.03
208,Niles,40,US,1545533700,88,41.83,-86.25,0.0,2.6
209,Bosaso,0,SO,1545534839,100,11.28,49.18,24.41,4.95
210,Uribia,48,CO,1545534839,81,11.71,-72.27,25.11,8.05
211,Lelese,92,RO,1545534840,96,45.73,22.7,1.96,2.58
212,Isangel,88,VU,1545534740,100,-19.55,169.27,26.59,3.03
213,Muyezerskiy,92,RU,1545534840,78,63.93,31.65,-15.39,1.55
214,Kingsport,0,US,1545532500,92,36.55,-82.56,0.0,1.13
215,Talcahuano,0,CL,1545534000,82,-36.72,-73.12,14.0,4.6
216,Kailua,90,US,1545534300,79,21.39,-157.74,27.2,2.6
217,Sagua la Grande,0,CU,1545533400,87,22.81,-80.07,14.0,1.0
218,Oistins,40,BB,1545530400,74,13.07,-59.53,26.0,7.7
219,Mehriz,20,IR,1545534000,80,31.58,54.44,1.0,2.1
220,Casper,1,US,1545533580,64,42.87,-106.31,-6.7,5.1
221,Brownsville,1,US,1545533580,96,25.91,-97.49,19.0,4.1
222,Puerto Baquerizo Moreno,88,EC,1545534841,100,-0.9,-89.6,24.46,4.13
223,Tromso,90,NO,1545533400,86,69.65,18.96,-1.0,9.8
224,Novosergiyevka,88,RU,1545534841,81,52.08,53.65,-14.32,3.75
225,Kendari,92,ID,1545534694,65,-3.99,122.52,29.61,3.85
226,Ust-Kut,44,RU,1545534841,62,56.78,105.75,-16.09,2.23
227,Binzhou,64,CN,1545534841,47,37.38,117.96,0.71,6.05
228,Multai,0,IN,1545534842,71,21.77,78.26,11.31,1.2
229,Porto Novo,40,BR,1545534000,88,-23.68,-45.44,22.0,1.05
230,Sur,0,OM,1545534685,100,22.57,59.53,21.71,4.53
231,Maniitsoq,92,GL,1545534699,97,65.42,-52.9,0.34,10.88
232,Saint-Junien,90,FR,1545532200,100,45.89,0.9,12.0,3.1
233,Adra,0,IN,1545530400,93,23.5,86.68,11.0,2.6
234,Clyde River,40,CA,1545531780,68,70.47,-68.59,-27.0,6.2
235,Saint-Augustin,90,FR,1545532200,100,44.83,-0.61,13.0,1.5
236,San Mateo Ixtatan,0,GT,1545534843,92,15.83,-91.48,8.76,0.2
237,Luderitz,0,NA,1545534731,72,-26.65,15.16,15.94,8.13
238,Curup,44,ID,1545534843,85,-3.47,102.53,24.86,1.15
239,Banjar,64,ID,1545534843,82,-7.37,108.54,26.21,1.65
240,Buchanan,40,LR,1545532200,94,5.88,-10.05,24.0,2.63
241,Baghmara,0,IN,1545534844,82,23.8,86.21,12.69,3.38
242,Pointe Michel,88,DM,1545534844,93,15.25,-61.38,26.29,7.43
243,Demirci,0,TR,1545534844,80,39.05,28.66,-6.69,0.93
244,Tessalit,0,ML,1545534845,46,20.2,1.01,6.61,1.83
245,Marathon,36,CA,1545534845,100,48.72,-86.38,-11.32,4.18
246,Port Lincoln,0,AU,1545534709,64,-34.72,135.86,23.51,1.15
247,Lagoa Vermelha,88,BR,1545534845,98,-28.21,-51.53,18.44,2.03
248,Batemans Bay,8,AU,1545534735,76,-35.71,150.18,20.31,2.03
249,Krechevitsy,92,RU,1545534845,91,58.62,31.4,-3.72,2.93
250,Ordynskoye,68,RU,1545534845,74,54.37,81.9,-17.57,1.48
251,Yanam,0,IN,1545532200,73,16.73,82.22,23.0,2.6
252,Ambilobe,92,MG,1545534846,100,-13.19,49.05,23.04,2.15
253,Muzhi,0,RU,1545534846,48,65.4,64.7,-33.94,4.08
254,La Ronge,75,CA,1545530400,78,55.1,-105.3,-12.0,2.1
255,San Jeronimo,88,PE,1545534847,78,-13.65,-73.37,6.54,0.65
256,Athabasca,0,CA,1545534847,53,54.72,-113.29,-16.29,1.33
257,Kastrakion,40,GR,1545529800,100,39.72,21.62,-1.0,1.1
258,Nikolskoye,75,RU,1545532200,92,59.7,30.79,-7.0,4.0
259,Akureyri,48,IS,1545534848,58,65.68,-18.09,-15.67,1.13
260,Geraldton,75,CA,1545530400,77,49.72,-86.95,-19.0,1.0
261,Namibe,44,AO,1545534678,100,-15.19,12.15,22.26,1.38
262,Kushima,75,JP,1545534000,72,31.5,131.29,20.0,3.1
263,Patitirion,0,GR,1545534848,100,39.15,23.87,13.54,3.5
264,Cabra,90,ES,1545532200,100,37.47,-4.43,5.0,1.0
265,Deputatskiy,20,RU,1545534848,0,69.3,139.9,-40.24,1.38
266,Les Escoumins,24,CA,1545534849,69,48.35,-69.4,-3.47,5.53
267,Owando,32,CG,1545534849,96,-0.49,15.91,21.66,1.03
268,Cabo San Lucas,5,MX,1545532800,88,22.89,-109.91,19.0,1.5
269,Mount Isa,0,AU,1545532200,10,-20.73,139.49,37.0,5.7
270,Mahibadhoo,76,MV,1545534849,100,3.78,72.97,26.81,3.85
271,Cherskiy,20,RU,1545534715,49,68.75,161.3,-34.17,1.2
272,Kargil,8,PK,1545534849,26,34.56,76.13,-32.89,0.25
273,Nata,90,CY,1545532200,81,34.78,32.57,11.0,3.1
274,Lang Son,76,VN,1545534850,89,21.83,106.73,19.86,4.28
275,Brezno,75,SK,1545534000,80,48.81,19.64,5.0,0.5
276,Zhireken,12,RU,1545534850,70,52.82,117.29,-21.82,1.48
277,Vanimo,36,PG,1545534738,100,-2.67,141.3,28.59,5.6
278,Zhezkazgan,0,KZ,1545534000,76,47.8,67.71,-24.0,1.0
279,Matara,88,PE,1545534685,78,-13.74,-72.9,6.54,0.65
280,Cuajinicuilapa,24,MX,1545534851,99,16.47,-98.41,25.61,2.73
281,Angoche,88,MZ,1545534851,100,-16.23,39.91,24.81,3.0
282,Mandalgovi,0,MN,1545534688,48,45.76,106.27,-18.09,4.75
283,Dingle,92,PH,1545534709,100,11.0,122.67,23.61,0.9
284,Nanortalik,92,GL,1545534680,93,60.14,-45.24,0.76,4.7
285,Samana,64,EC,1545534851,94,0.12,-76.97,22.71,0.08
286,Avera,1,US,1545533700,91,33.19,-82.53,3.9,1.45
287,Riyadh,0,SA,1545534000,70,24.63,46.72,9.0,1.5
288,Hami,0,CN,1545534852,48,42.84,93.51,-19.74,1.28
289,Camacha,40,PT,1545532200,77,33.08,-16.33,18.0,4.6
290,Lorengau,44,PG,1545534695,100,-2.02,147.27,29.31,2.6
291,Te Anau,0,NZ,1545534852,51,-45.41,167.72,17.26,1.15
292,Quatre Cocos,75,MU,1545530400,78,-20.21,57.76,26.0,7.2
293,Dunedin,0,NZ,1545534678,75,-45.87,170.5,15.06,4.08
294,Wukari,0,NG,1545534852,40,7.87,9.78,20.91,5.15
295,Baglan,92,GB,1545533400,100,51.62,-3.81,9.0,4.1
296,Tura,0,IN,1545534710,84,25.52,90.21,17.54,1.9
297,Merauke,44,ID,1545534697,89,-8.49,140.4,29.69,3.6
298,Fort Nelson,5,CA,1545530400,75,58.81,-122.69,-26.0,1.0
299,Mountain Home,1,US,1545533580,51,43.13,-115.69,1.7,5.1
300,Heinola,90,FI,1545533400,92,61.2,26.03,-10.0,3.6
301,Sayansk,68,RU,1545534853,71,54.11,102.18,-13.39,1.35
302,Mount Gambier,0,AU,1545530400,46,-37.83,140.78,22.0,2.6
303,Le Port,0,FR,1545534853,72,42.87,1.37,-6.47,0.6
304,Lima,0,PE,1545530400,73,-12.06,-77.04,23.0,6.7
305,Tselinnoye,80,UA,1545534854,98,45.9,34.18,5.94,5.93
306,Nayudupeta,40,IN,1545532200,78,13.91,79.9,24.0,3.6
307,Kutum,0,SD,1545534854,54,14.2,24.66,5.66,4.13
308,Bethel,90,US,1545533760,86,60.79,-161.76,-16.1,6.2
309,Ukiah,90,US,1545530160,79,39.15,-123.21,8.9,0.98
310,Preobrazheniye,80,RU,1545534693,52,42.9,133.91,-6.09,2.55
311,Cumpas,0,MX,1545534854,76,30.0,-109.78,8.96,1.1
312,Santa Rosa,0,AR,1545534708,42,-36.62,-64.29,25.09,5.95
313,Teya,5,MX,1545532920,64,21.05,-89.07,20.0,3.1
314,Hanstholm,92,DK,1545534854,100,57.12,8.61,0.91,4.95
315,Sorong,36,ID,1545534855,100,-0.86,131.25,27.81,4.15
316,Hambantota,20,LK,1545531000,100,6.12,81.12,26.0,3.1
317,Sosnovo-Ozerskoye,8,RU,1545534855,57,52.53,111.54,-19.84,5.08
318,Alta Floresta,44,BR,1545534855,89,-9.87,-56.08,25.19,1.0
319,Novobelokatay,36,RU,1545534855,65,55.7,58.96,-20.22,2.13
320,Lepaterique,75,HN,1545534000,68,14.07,-87.47,19.2,5.7
321,Berdigestyakh,56,RU,1545534856,69,62.1,126.7,-26.59,2.5
322,Takab,0,IR,1545534856,63,36.4,47.11,-13.07,1.03
323,Mayo,5,CA,1545530400,67,63.59,-135.9,-31.0,1.28
324,Naze,0,NG,1545534698,75,5.43,7.07,24.69,3.6
325,Katsuura,20,JP,1545534000,67,33.93,134.5,15.0,2.6
326,Isabela,100,PH,1545534856,100,10.2,122.99,23.04,1.1
327,Vao,92,EE,1545534710,87,59.1,26.19,-5.32,1.9
328,Marsh Harbour,0,BS,1545534715,100,26.54,-77.06,20.66,3.53
329,Vila Franca do Campo,75,PT,1545532200,100,37.72,-25.43,15.0,4.6
330,Babstovo,48,RU,1545534857,68,48.12,132.48,-12.14,3.95
331,Puerto del Rosario,20,ES,1545532200,60,28.5,-13.86,21.0,3.1
332,Vestmannaeyjar,8,IS,1545534535,100,63.44,-20.27,-0.84,3.23
333,Funtua,0,NG,1545534857,45,11.52,7.31,12.86,4.85
334,Springbok,0,ZA,1545534837,78,-29.67,17.88,7.76,1.13
335,Sioux Lookout,90,CA,1545532500,85,50.1,-91.92,-9.0,1.0
336,Ancud,90,CL,1545530400,76,-41.87,-73.83,12.0,2.1
337,Yibin,76,CN,1545534858,88,28.77,104.64,10.19,1.1
338,Ishigaki,75,JP,1545534000,78,24.34,124.16,25.0,6.7
339,San Policarpo,92,PH,1545534858,100,12.18,125.51,25.29,4.13
340,Loandjili,75,CG,1545530400,88,-4.77,11.87,27.0,3.6
341,Puerto Escondido,20,MX,1545532860,65,15.86,-97.07,25.0,0.88
342,Lexington,1,US,1545533700,77,38.05,-84.5,0.6,2.6
343,Margate,75,AU,1545532200,40,-43.03,147.26,22.0,6.2
344,Paso de Carrasco,20,UY,1545534000,72,-34.86,-56.05,19.0,2.45
345,Turka,92,UA,1545534859,93,49.16,23.03,0.19,4.25
346,Kuytun,64,RU,1545534860,74,54.34,101.51,-12.74,1.38
347,Kamenka,68,RU,1545534729,81,53.19,44.05,-11.34,3.6
348,Grong,76,NO,1545534860,82,64.47,12.32,-15.04,1.03
349,Yongan,0,CN,1545534860,31,39.7,113.69,-12.69,1.6
350,Kruisfontein,76,ZA,1545534688,87,-34.0,24.73,18.51,2.95
351,Los Llanos de Aridane,56,ES,1545532200,55,28.66,-17.92,18.0,1.0
352,Copiapo,0,CL,1545530400,77,-27.37,-70.33,16.0,4.1
353,Vavozh,80,RU,1545534860,78,56.77,51.93,-13.82,2.85
354,Ruston,1,US,1545533700,82,32.52,-92.64,15.1,1.5
355,Latina,0,IT,1545533400,93,41.47,12.9,13.0,2.1
356,Maceo,20,CO,1545534861,93,6.55,-74.79,17.81,0.45
357,Sobolevo,92,RU,1545534861,95,54.43,31.9,-1.04,5.2
358,Khuzdar,0,PK,1545534861,75,27.8,66.62,-2.99,1.03
359,Mezen,44,RU,1545534861,67,65.85,44.24,-16.17,3.18
360,Leningradskiy,20,RU,1545534674,100,69.38,178.42,-27.89,5.63
361,Coleraine,90,GB,1545533400,93,55.13,-6.67,7.0,2.1
362,Tuatapere,0,NZ,1545534656,84,-46.13,167.69,15.26,3.0
363,Khuzhir,48,RU,1545534862,100,53.19,107.35,-10.04,3.15
364,Aanekoski,90,FI,1545533400,85,62.6,25.73,-12.0,1.5
365,Natal,20,BR,1545534000,78,-5.81,-35.21,27.0,3.6
366,Jega,0,NG,1545534862,43,12.22,4.38,14.66,4.63
367,Alanya,0,TR,1545529800,93,36.55,32.0,7.0,2.6
368,Khovu-Aksy,0,RU,1545534863,26,51.13,93.72,-29.64,1.0
369,Gueugnon,90,FR,1545532200,100,46.6,4.06,9.0,2.6
370,Malmyzh,88,RU,1545534863,85,56.52,50.68,-12.74,4.43
371,Thinadhoo,0,MV,1545534863,100,0.53,72.93,27.86,3.93
372,Opuwo,32,NA,1545534863,95,-18.06,13.84,16.19,1.0
373,Christchurch,0,NZ,1545534000,59,-43.53,172.64,16.0,5.1
374,Nuevo Progreso,1,US,1545533700,78,26.05,-97.95,20.3,4.1
375,Jian,0,IN,1545534864,69,25.65,87.89,14.84,3.38
376,Vaitape,92,PF,1545534864,98,-16.52,-151.75,28.69,7.4
377,Ozoir-la-Ferriere,90,FR,1545532200,100,48.77,2.67,8.0,4.1
378,Saint Albans,90,US,1545533700,75,44.81,-73.08,-2.2,3.6
379,Nioro,0,GM,1545534865,38,13.79,-15.05,20.76,4.83
380,Beira,0,ES,1545532200,81,43.2,-8.36,12.0,3.6
381,Dolores,0,UY,1545534865,72,-33.53,-58.22,20.06,3.9
382,Naco,1,MX,1545533880,27,31.32,-109.94,12.6,3.6
383,Tingo Maria,76,PE,1545534865,98,-9.29,-76.01,16.94,0.33
384,Champerico,5,MX,1545533760,72,16.38,-93.6,18.0,2.1
385,Skeldon,76,GY,1545534865,97,5.88,-57.13,25.69,4.88
386,Moroni,12,US,1545534866,74,39.52,-111.59,-10.49,0.58
387,Sydney,20,AU,1545532200,64,-33.85,151.22,23.0,7.2
388,Kirakira,44,SB,1545534866,100,-10.46,161.92,29.41,4.15
389,Jawhar,0,IN,1545534866,78,19.91,73.23,17.94,1.33
390,Cayenne,92,GF,1545532200,94,4.94,-52.33,23.0,4.1
391,Urambo,92,TZ,1545534867,99,-5.07,32.07,17.11,0.55
392,Susanville,90,US,1545532500,86,40.42,-120.65,1.0,1.0
393,Aswan,0,EG,1545530400,62,24.09,32.9,12.0,2.6
394,Ust-Nera,68,RU,1545534867,42,64.57,143.24,-33.99,0.98
395,Kalmunai,100,LK,1545534867,100,7.42,81.82,24.26,1.38
396,Bilma,0,NE,1545534663,65,18.69,12.92,7.01,1.43
397,Bichura,0,RU,1545534867,46,50.59,107.6,-17.04,2.78
398,Broken Hill,0,AU,1545530400,34,-31.97,141.45,27.0,3.6
399,Pangkalanbuun,56,ID,1545534685,90,-2.68,111.62,29.09,2.4
400,Lucapa,92,AO,1545534868,98,-8.42,20.74,19.16,1.13
401,Samarai,48,PG,1545534868,100,-10.62,150.67,29.19,3.68
402,Caete,0,BR,1545534000,82,-19.88,-43.67,21.0,1.5
403,Makakilo City,1,US,1545534300,56,21.35,-158.09,27.2,3.1
404,Kahului,40,US,1545533760,76,20.89,-156.47,26.1,6.7
405,Touros,40,BR,1545534000,83,-5.2,-35.46,26.0,2.1
406,Theunissen,0,ZA,1545534868,53,-28.4,26.71,15.29,2.03
407,Port Keats,8,AU,1545534709,87,-14.25,129.55,33.94,1.13
408,Aracuai,64,BR,1545534869,98,-16.85,-42.07,18.79,0.8
409,Shiraz,0,IR,1545534000,73,29.61,52.54,-3.0,0.88
410,Ozernovskiy,48,RU,1545534869,93,51.5,156.52,-1.97,3.3
411,Kununurra,0,AU,1545532200,39,-15.77,128.74,37.0,2.6
412,Souillac,90,FR,1545532200,93,45.6,-0.6,13.0,2.6
413,Kayerkan,56,RU,1545534869,42,69.35,87.76,-32.72,7.98
414,Galesong,40,ID,1545532200,83,-5.32,119.37,28.0,1.5
415,Auch,90,FR,1545532200,87,43.65,0.59,14.0,2.1
416,Shingu,40,JP,1545534000,77,33.72,135.99,17.0,1.0
417,Shu,32,KZ,1545534869,66,43.6,73.76,-13.69,1.28
418,Arteaga,5,MX,1545532800,61,25.45,-100.85,10.0,1.15
419,Den Helder,90,NL,1545533700,87,52.96,4.76,9.0,6.2
420,Viedma,8,AR,1545534870,37,-40.81,-62.99,22.76,5.75
421,Bintulu,75,MY,1545530400,83,3.17,113.03,28.0,2.1
422,Luchegorsk,0,RU,1545534871,45,46.44,134.3,-8.49,4.03
423,Shepsi,92,RU,1545534871,100,44.04,39.15,11.44,9.13
424,San Rafael,0,AR,1545534872,64,-34.61,-68.33,15.41,2.05
425,Ust-Maya,56,RU,1545534872,32,60.42,134.54,-30.32,1.58
426,Santa Maria,0,BR,1545534614,91,-29.69,-53.81,18.26,1.78
427,Blagoveshchensk,0,RU,1545534000,45,50.29,127.53,-15.0,5.0
428,Kota Kinabalu,75,MY,1545532200,70,5.98,116.07,31.0,2.1
429,Thiruvananthapuram,75,IN,1545534000,83,8.48,76.92,27.0,2.1
430,Ardakan,20,IR,1545534000,80,32.31,54.02,1.0,2.1
431,Hervey Bay,20,AU,1545530400,65,-25.3,152.85,26.0,9.8
432,Faanui,68,PF,1545534666,99,-16.48,-151.75,28.94,7.3
433,Pasighat,0,IN,1545534874,47,28.06,95.33,15.69,0.93
434,Talavera,90,PH,1545534000,78,15.58,120.92,27.0,2.1
435,Port Blair,0,IN,1545534874,100,11.67,92.75,28.26,4.83
436,Lucea,40,JM,1545534000,83,18.44,-78.17,25.0,1.0
437,Kirovskiy,0,RU,1545534874,49,45.09,133.51,-8.34,3.9
438,Rio Gallegos,0,AR,1545534000,37,-51.62,-69.22,11.0,5.1
439,Corinto,48,BR,1545534875,88,-18.36,-44.46,20.86,1.73
440,Sheridan,40,US,1545533220,63,39.65,-105.03,-3.0,2.6
441,Kerema,92,PG,1545534875,100,-7.96,145.78,24.59,1.5
442,Lavrentiya,68,RU,1545534695,100,65.58,-170.99,-13.74,6.45
443,Banda Aceh,0,ID,1545534728,80,5.56,95.32,27.91,1.73
444,Alvand,0,IR,1545534000,100,36.19,50.06,-3.0,0.7
445,Blythe,1,US,1545533520,56,33.61,-114.59,12.2,3.6
446,Galle,1,US,1545533760,59,29.74,-97.91,16.1,3.9
447,Luan,90,CH,1545533400,87,46.36,6.98,9.0,3.6
448,Lukovetskiy,20,RU,1545534000,84,64.29,41.92,-18.0,3.0
449,Komatipoort,76,MZ,1545530400,88,-25.43,31.96,21.0,1.5
450,Namatanai,92,PG,1545534695,100,-3.66,152.44,26.26,1.05
451,Rubiataba,32,BR,1545534876,82,-15.16,-49.8,21.79,1.2
452,Visnes,64,NO,1545533400,100,59.36,5.22,0.0,2.6
453,Saint-Joseph,0,FR,1545532200,71,43.56,6.97,13.0,5.7
454,San Cristobal,20,EC,1545530400,81,-0.39,-78.55,12.0,1.5
455,Mlimba,92,TZ,1545534877,97,-8.78,35.81,21.54,0.88
456,Changji,0,CN,1545534877,85,32.07,116.17,8.56,2.48
457,Yeniseysk,36,RU,1545534877,66,58.45,92.17,-22.67,2.45
458,Pevek,24,RU,1545534666,100,69.7,170.27,-32.19,3.05
459,Francisco Sa,0,BR,1545530400,64,-16.48,-43.49,23.0,1.35
460,Port Hedland,0,AU,1545532200,32,-20.31,118.58,36.0,6.2
461,Petropavlovsk-Kamchatskiy,76,RU,1545534000,66,53.05,158.65,-9.0,1.0
462,Ossora,48,RU,1545534878,89,59.24,163.07,-15.59,3.18
463,Antalaha,100,MG,1545534655,100,-14.9,50.28,23.94,1.65
464,Mouila,88,GA,1545534878,100,-1.86,11.06,20.81,0.45
465,Carauari,44,BR,1545534878,93,-4.88,-66.9,23.76,1.33
466,Omsk,75,RU,1545534000,84,54.99,73.37,-17.0,4.0
467,Vadso,32,NO,1545533400,84,70.07,29.75,-17.0,8.2
468,Kavaratti,0,IN,1545534667,100,10.57,72.64,28.36,3.73
469,Lakatoro,92,VU,1545534714,84,-16.11,167.42,29.09,3.0
470,Tiznit,0,MA,1545534709,84,29.7,-9.73,11.71,2.13
471,Rincon,1,US,1545533760,89,32.3,-81.24,5.0,1.48
472,Ampanihy,0,MG,1545534879,90,-24.69,44.75,15.86,2.8
473,Tunoshna,90,RU,1545534000,85,57.55,40.13,-10.0,3.0
474,Khani,40,GE,1545534000,93,41.96,42.96,5.0,2.6
475,Ahuimanu,90,US,1545530220,73,21.44,-157.84,27.8,3.1
476,Adeje,0,NG,1545534879,83,5.68,5.76,25.11,3.05
477,Evensk,20,RU,1545534705,100,61.92,159.24,-18.74,3.75
478,Tiquisio,0,CO,1545534879,56,8.56,-74.26,26.51,1.95
479,Port Macquarie,75,AU,1545530400,64,-31.43,152.91,21.0,3.6
480,Buin,0,CL,1545534000,67,-33.73,-70.74,17.0,4.1
481,Omsukchan,24,RU,1545534880,35,62.53,155.8,-31.72,1.2
482,Batticaloa,80,LK,1545534880,100,7.71,81.69,25.96,2.73
483,Juneau,20,US,1545533760,95,58.3,-134.42,-2.2,1.33
484,Walvis Bay,64,NA,1545530400,88,-22.95,14.51,17.0,3.1
485,Kyshtovka,48,RU,1545534880,71,56.56,76.62,-16.92,5.08
486,Acajutla,0,SV,1545534633,53,13.59,-89.83,22.29,1.25
487,Chaoyang,0,CN,1545534880,43,41.58,120.44,-6.24,3.63
488,Ewa Beach,1,US,1545534300,56,21.32,-158.01,27.2,3.1
489,Nuuk,92,GL,1545533400,92,64.17,-51.74,3.0,12.9
490,Astoria,90,US,1545533520,100,46.19,-123.83,7.0,6.2
491,Chetumal,75,BZ,1545532980,68,18.5,-88.3,22.0,3.6
492,Coihaique,0,CL,1545534000,58,-45.58,-72.07,14.0,2.6
493,Calabozo,12,VE,1545534695,53,8.92,-67.43,27.06,6.65
494,Bandarbeyla,92,SO,1545534740,100,9.49,50.81,24.01,9.1
495,Toktogul,20,KG,1545534726,73,41.87,72.95,-14.09,0.75
496,Mount Pleasant,1,US,1545533760,58,33.16,-94.97,13.1,3.1
497,Sorland,92,NO,1545534882,100,67.67,12.69,4.26,9.85
498,Nurota,90,UZ,1545534000,86,40.56,65.69,-1.0,3.1
499,Basco,90,US,1545533700,92,40.33,-91.2,0.0,2.1
500,Klaksvik,0,FO,1545533400,93,62.23,-6.59,2.0,0.5
501,Anahuac,75,US,1545533700,82,29.77,-94.68,19.4,2.6
502,Beloha,0,MG,1545534660,80,-25.17,45.06,18.04,1.73
503,Punta Alta,20,AR,1545534000,88,-27.46,-55.82,25.0,1.0
504,Biak,68,ID,1545534883,94,-0.91,122.88,28.34,1.25
505,Roald,92,NO,1545533400,100,62.58,6.12,3.0,5.1
506,Talnakh,44,RU,1545534674,49,69.49,88.39,-34.39,4.15
507,Burgersdorp,0,ZA,1545534883,75,-30.99,26.32,14.06,2.7
508,Ushtobe,0,KZ,1545534883,49,45.25,77.98,-23.09,1.13
509,Hohhot,0,CN,1545530400,45,40.81,111.65,-17.0,1.0
510,Port Hardy,90,CA,1545530400,80,50.7,-127.42,5.0,15.4
511,Chitral,68,PK,1545534883,67,35.85,71.79,-18.64,0.38
512,Henties Bay,48,NA,1545534725,98,-22.12,14.28,16.44,1.55
513,Mporokoso,88,ZM,1545534884,99,-9.37,30.12,17.34,3.3
514,Mokshan,80,RU,1545534884,80,53.44,44.61,-12.19,3.45
515,Xining,0,CN,1545534884,30,36.62,101.77,-3.22,1.58
516,Kandrian,64,PG,1545534884,81,-6.21,149.55,28.86,1.65
517,Saint Austell,92,GB,1545529800,100,50.34,-4.77,11.0,7.7
518,Padang,75,ID,1545530400,83,-0.92,100.36,26.0,1.0
519,Hearst,64,CA,1545534885,63,49.69,-83.67,-17.59,1.23
520,Cap Malheureux,75,MU,1545530400,78,-19.98,57.61,26.0,7.2
521,Capissayan,92,PH,1545534885,100,18.05,121.82,23.06,2.48
522,Laguna,40,MX,1545529560,59,27.52,-110.01,17.0,0.9
523,Abha,20,SA,1545530400,82,18.22,42.5,14.0,1.55
524,Charters Towers,36,AU,1545534885,100,-20.07,146.27,27.19,3.85
525,Mnogovershinnyy,68,RU,1545534885,75,53.94,139.92,-13.79,1.2
526,Mahajanga,20,MG,1545534000,83,-15.72,46.32,27.0,2.1
527,Bitkine,0,TD,1545534886,36,11.98,18.21,13.06,4.08
528,Hundorp,88,NO,1545534886,85,61.55,9.94,-9.82,1.23
529,Killybegs,92,IE,1545534886,100,54.63,-8.45,7.11,2.18
530,San Andres,88,PH,1545534886,100,13.32,122.68,26.54,8.3
531,Orvieto,0,IT,1545529800,100,42.72,12.11,10.0,2.1
532,Auki,0,NG,1545534724,46,12.18,6.51,12.81,4.25
533,Tateyama,75,JP,1545534000,81,36.66,137.31,10.0,1.5
534,Stykkisholmur,92,IS,1545534887,100,65.08,-22.73,-0.19,2.05
535,Ayagoz,0,KZ,1545534887,29,47.96,80.43,-29.67,0.83
536,Ponta do Sol,24,BR,1545534667,89,-20.63,-46.0,20.91,1.1
537,Valleyview,0,CA,1545534888,53,55.07,-117.28,-16.19,1.55
538,Margherita,0,IN,1545532200,82,27.29,95.67,16.0,2.1
539,Young,0,UY,1545534888,62,-32.7,-57.63,19.59,4.15
540,Bilibino,32,RU,1545534680,0,68.06,166.44,-41.59,1.03
541,Salinopolis,92,BR,1545534888,100,-0.61,-47.36,26.11,4.35
542,Dakar,0,SN,1545532200,15,14.69,-17.45,26.0,5.1
543,Gravdal,20,NO,1545533400,100,59.79,5.78,1.0,2.6
544,Berlevag,44,NO,1545534889,100,70.86,29.09,-11.19,4.05
545,Prachuap Khiri Khan,64,TH,1545534889,67,11.81,99.79,28.19,0.78
546,Coahuayana,8,MX,1545534722,72,18.62,-100.35,12.29,1.03
547,Galatas,76,GR,1545531600,87,38.36,21.56,12.0,0.5
548,Parfino,92,RU,1545534889,88,57.97,31.65,-3.24,4.35
549,Grindavik,75,IS,1545534000,100,63.84,-22.43,1.0,2.1
550,Alegria,80,PH,1545534890,100,9.46,125.58,25.66,3.18
551,Taksimo,12,RU,1545534890,36,56.36,114.84,-32.57,0.2
552,Kompaniyivka,92,UA,1545534890,98,48.25,32.21,1.59,4.38
553,Urucara,76,BR,1545534890,100,-2.54,-57.76,23.44,1.0
554,Tigil,56,RU,1545534891,89,57.8,158.67,-10.59,1.23
555,Tomatlan,0,MX,1545534891,92,19.93,-105.25,16.54,1.05
556,Isla Vista,1,US,1545533580,96,34.41,-119.86,13.3,2.1
557,Nanakuli,1,US,1545534300,65,21.39,-158.15,27.2,3.1
558,Kralendijk,8,BQ,1545533700,83,12.15,-68.27,26.0,5.1
559,Bemidji,90,US,1545533700,89,47.48,-94.89,-2.8,3.1
560,Bambanglipuro,48,ID,1545534891,90,-7.95,110.28,27.59,1.9
561,Okha,64,RU,1545534728,92,53.59,142.95,-10.07,4.83
